[
  {
    "station_name":"Egmore Fire Station",
    "district":"Chennai",
    "address":"Rukmani Lakshmipathy Salai, Egmore",
    "pincode":"600008",
    "mobile":"9445086004",
    "landline":"044-28512992",
    "email":"egmore.tnfrs@gov.in",
    "latitude":13.0725,
    "longitude":80.2619,
    "category":"A",
    "equipment":"Water Tender; Rescue Van"
  },
  {
    "station_name":"T Nagar Fire Station",
    "district":"Chennai",
    "address":"South Boag Road, T Nagar",
    "pincode":"600017",
    "mobile":"9445086005",
    "landline":"044-24343664",
    "email":"tnagar.tnfrs@gov.in",
    "latitude":13.0418,
    "longitude":80.2337,
    "category":"A",
    "equipment":"Water Tender; Foam Tender"
  },
  {
    "station_name":"Tambaram Fire Station",
    "district":"Chengalpattu",
    "address":"GST Road, Tambaram",
    "pincode":"600045",
    "mobile":"9445086020",
    "landline":"044-22262701",
    "email":"tambaram.tnfrs@gov.in",
    "latitude":12.9249,
    "longitude":80.1,
    "category":"A",
    "equipment":"Fire Engine; Rescue Van"
  },
  {
    "station_name":"Kanchipuram Fire Station",
    "district":"Kanchipuram",
    "address":"Taluk Office Campus, Kanchipuram",
    "pincode":"631501",
    "mobile":"9445086141",
    "landline":"044-27222899",
    "email":"kanchipuram.tnfrs@gov.in",
    "latitude":12.8352,
    "longitude":79.7036,
    "category":"A",
    "equipment":"Water Tender; Foam Tender"
  },
  {
    "station_name":"Sriperumbudur Fire Station",
    "district":"Kanchipuram",
    "address":"SIPCOT Industrial Area Road",
    "pincode":"602105",
    "mobile":"9445086146",
    "landline":"044-27162259",
    "email":"sriperumbudur.tnfrs@gov.in",
    "latitude":12.9675,
    "longitude":79.9412,
    "category":"B",
    "equipment":"Water Tender"
  },
  {
    "station_name":"Uthiramerur Fire Station",
    "district":"Kanchipuram",
    "address":"Paruthikollai Village Road",
    "pincode":"603406",
    "mobile":"9445086148",
    "landline":"044-27272236",
    "email":"uthiramerur.tnfrs@gov.in",
    "latitude":12.6132,
    "longitude":79.7576,
    "category":"C",
    "equipment":"Mini Fire Tender"
  },
  {
    "station_name":"Tindivanam Fire Station",
    "district":"Viluppuram",
    "address":"Tindivanam Town",
    "pincode":"604001",
    "mobile":"9445086495",
    "landline":"04147-222101",
    "email":"tindivanam.tnfrs@gov.in",
    "latitude":12.2341,
    "longitude":79.6555,
    "category":"B",
    "equipment":"Fire Engine"
  },
  {
    "station_name":"Gingee Fire Station",
    "district":"Viluppuram",
    "address":"Gingee Main Road",
    "pincode":"604202",
    "mobile":"9445086490",
    "landline":"04145-222074",
    "email":"gingee.tnfrs@gov.in",
    "latitude":12.2507,
    "longitude":79.4178,
    "category":"C",
    "equipment":"Water Tender"
  },
  {
    "station_name":"Madurai Fire Station",
    "district":"Madurai",
    "address":"Tallakulam Main Road",
    "pincode":"625002",
    "mobile":"9445086101",
    "landline":"0452-2522200",
    "email":"madurai.tnfrs@gov.in",
    "latitude":9.9252,
    "longitude":78.1198,
    "category":"A",
    "equipment":"Water Tender; Ladder Truck"
  },
  {
    "station_name":"Coimbatore Fire Station",
    "district":"Coimbatore",
    "address":"Avinashi Road",
    "pincode":"641018",
    "mobile":"9445086055",
    "landline":"0422-2302222",
    "email":"coimbatore.tnfrs@gov.in",
    "latitude":11.0168,
    "longitude":76.9558,
    "category":"A",
    "equipment":"Foam Tender; Rescue Van"
  }
]